{
"type": "FeatureCollection",
"name": "andorra_accommodations",
"crs": { "type": "name", "properties": { "name": "urn:ogc:def:crs:OGC:1.3:CRS84" } },
"features": [
{ "type": "Feature", "properties": { "id": 268096174, "name": "Hotel Xalet Besoli", "type": "hotel", "latitude": 42.5684921, "longitude": 1.4896011, "street": "Unknown", "post_code": "Unknown", "city": "Unknown", "website": "https://xaletbesoli.top/", "parish": "La Massana" }, "geometry": { "type": "Point", "coordinates": [ 1.4896011, 42.5684921 ] } },
{ "type": "Feature", "properties": { "id": 278752636, "name": "Hotel Nordic", "type": "hotel", "latitude": 42.5776839, "longitude": 1.6506788, "street": "Unknown", "post_code": "Unknown", "city": "Unknown", "website": "N/A", "parish": "Canillo" }, "geometry": { "type": "Point", "coordinates": [ 1.6506788, 42.5776839 ] } },
{ "type": "Feature", "properties": { "id": 281694408, "name": "Hotel la Coma", "type": "hotel", "latitude": 42.5558367, "longitude": 1.5352907, "street": "Carrer del Camp de la Tanada", "post_code": "AD300", "city": "Ordino", "website": "https://hotelcoma.com/", "parish": "La Massana" }, "geometry": { "type": "Point", "coordinates": [ 1.5352907, 42.5558367 ] } },
{ "type": "Feature", "properties": { "id": 442881217, "name": "Hotel Magic Ski", "type": "hotel", "latitude": 42.5476038, "longitude": 1.513549, "street": "Avinguda del Ravell", "post_code": "AD400", "city": "La Massana", "website": "https://www.hotelmagicski.com/", "parish": "La Massana" }, "geometry": { "type": "Point", "coordinates": [ 1.513549, 42.5476038 ] } },
{ "type": "Feature", "properties": { "id": 442881670, "name": "Hotel Font", "type": "hotel", "latitude": 42.5470493, "longitude": 1.5137876, "street": "Unknown", "post_code": "Unknown", "city": "Unknown", "website": "N/A", "parish": "La Massana" }, "geometry": { "type": "Point", "coordinates": [ 1.5137876, 42.5470493 ] } },
{ "type": "Feature", "properties": { "id": 442881710, "name": "Hotel Magic", "type": "hotel", "latitude": 42.5471619, "longitude": 1.5149412, "street": "Avinguda el Travès", "post_code": "AD400", "city": "La Massana", "website": "https://www.hotelmagicmassana.com/", "parish": "La Massana" }, "geometry": { "type": "Point", "coordinates": [ 1.5149412, 42.5471619 ] } },
{ "type": "Feature", "properties": { "id": 442881842, "name": "Hotel Marco Polo", "type": "hotel", "latitude": 42.5426353, "longitude": 1.5170824, "street": "Unknown", "post_code": "Unknown", "city": "Unknown", "website": "https://www.hotelmarcopolo.com/", "parish": "La Massana" }, "geometry": { "type": "Point", "coordinates": [ 1.5170824, 42.5426353 ] } },
{ "type": "Feature", "properties": { "id": 442882272, "name": "Hotel Burna", "type": "hotel", "latitude": 42.5366401, "longitude": 1.5167992, "street": "Unknown", "post_code": "Unknown", "city": "Unknown", "website": "N/A", "parish": "La Massana" }, "geometry": { "type": "Point", "coordinates": [ 1.5167992, 42.5366401 ] } },
{ "type": "Feature", "properties": { "id": 442882581, "name": "Residential de l'Aldosa", "type": "hotel", "latitude": 42.543523, "longitude": 1.5228025, "street": "Unknown", "post_code": "AD400", "city": "L’Aldosa", "website": "N/A", "parish": "La Massana" }, "geometry": { "type": "Point", "coordinates": [ 1.5228025, 42.543523 ] } },
{ "type": "Feature", "properties": { "id": 590463653, "name": "Apartments St. Moritz", "type": "apartment", "latitude": 42.5718108, "longitude": 1.4842909, "street": "Carretera d'Arinsal", "post_code": "Unknown", "city": "Arinsal", "website": "N/A", "parish": "La Massana" }, "geometry": { "type": "Point", "coordinates": [ 1.4842909, 42.5718108 ] } },
{ "type": "Feature", "properties": { "id": 590463656, "name": "Hotel Solana", "type": "hotel", "latitude": 42.5714552, "longitude": 1.4858474, "street": "Unknown", "post_code": "Unknown", "city": "Unknown", "website": "N/A", "parish": "La Massana" }, "geometry": { "type": "Point", "coordinates": [ 1.4858474, 42.5714552 ] } },
{ "type": "Feature", "properties": { "id": 590463661, "name": "Hotel Xalet Verdú", "type": "hotel", "latitude": 42.5749252, "longitude": 1.481818, "street": "Prat Del Verdú, Carretera General D'Arinsal, AD400 Arinsal, Andorra", "post_code": "Unknown", "city": "Unknown", "website": "https://xaletverdu.com", "parish": "La Massana" }, "geometry": { "type": "Point", "coordinates": [ 1.481818, 42.5749252 ] } },
{ "type": "Feature", "properties": { "id": 590463663, "name": "Hotel Yomo Patagonia", "type": "hotel", "latitude": 42.577688, "longitude": 1.4788261, "street": "Unknown", "post_code": "Unknown", "city": "Unknown", "website": "https://www.yomohotels.com/en/hotels/patagonia/", "parish": "La Massana" }, "geometry": { "type": "Point", "coordinates": [ 1.4788261, 42.577688 ] } },
{ "type": "Feature", "properties": { "id": 590463669, "name": "Hotel Ayma", "type": "hotel", "latitude": 42.5732923, "longitude": 1.4831734, "street": "Unknown", "post_code": "Unknown", "city": "Unknown", "website": "N/A", "parish": "La Massana" }, "geometry": { "type": "Point", "coordinates": [ 1.4831734, 42.5732923 ] } },
{ "type": "Feature", "properties": { "id": 590538926, "name": "Hotel Arinsal", "type": "hotel", "latitude": 42.5737679, "longitude": 1.4826865, "street": "Unknown", "post_code": "Unknown", "city": "Unknown", "website": "https://www.hotelarinsal.com", "parish": "La Massana" }, "geometry": { "type": "Point", "coordinates": [ 1.4826865, 42.5737679 ] } },
{ "type": "Feature", "properties": { "id": 820954183, "name": "Hotel Bruxelles", "type": "hotel", "latitude": 42.576807, "longitude": 1.666509, "street": "Unknown", "post_code": "AD100", "city": "Soldeu", "website": "N/A", "parish": "Canillo" }, "geometry": { "type": "Point", "coordinates": [ 1.666509, 42.576807 ] } },
{ "type": "Feature", "properties": { "id": 1051444040, "name": "Hotel Euro Esqui", "type": "hotel", "latitude": 42.5784829, "longitude": 1.6576396, "street": "Unknown", "post_code": "Unknown", "city": "Unknown", "website": "N/A", "parish": "Canillo" }, "geometry": { "type": "Point", "coordinates": [ 1.6576396, 42.5784829 ] } },
{ "type": "Feature", "properties": { "id": 1051748851, "name": "Hotel Del Clos", "type": "hotel", "latitude": 42.5804181, "longitude": 1.6491254, "street": "Unknown", "post_code": "AD100", "city": "El Tarter", "website": "N/A", "parish": "Canillo" }, "geometry": { "type": "Point", "coordinates": [ 1.6491254, 42.5804181 ] } },
{ "type": "Feature", "properties": { "id": 1397132076, "name": "Les Closes", "type": "hotel", "latitude": 42.5084573, "longitude": 1.5370477, "street": "Avinguda Carlemany", "post_code": "Unknown", "city": "Unknown", "website": "https://www.lescloses.com/", "parish": "Escaldes-Engordany" }, "geometry": { "type": "Point", "coordinates": [ 1.5370477, 42.5084573 ] } },
{ "type": "Feature", "properties": { "id": 1498852269, "name": "Hotel Sant Eloi", "type": "hotel", "latitude": 42.4582683, "longitude": 1.4875781, "street": "Carretera d'Espanya", "post_code": "600", "city": "Unknown", "website": "https://www.hotelsanteloi.com/", "parish": "Sant Julia de Loria" }, "geometry": { "type": "Point", "coordinates": [ 1.4875781, 42.4582683 ] } },
{ "type": "Feature", "properties": { "id": 1568150075, "name": "Chalet Casale", "type": "hotel", "latitude": 42.5793721, "longitude": 1.6529451, "street": "Unknown", "post_code": "Unknown", "city": "Unknown", "website": "N/A", "parish": "Canillo" }, "geometry": { "type": "Point", "coordinates": [ 1.6529451, 42.5793721 ] } },
{ "type": "Feature", "properties": { "id": 1568150107, "name": "Hotel Del Tarter", "type": "hotel", "latitude": 42.5786414, "longitude": 1.6500037, "street": "Unknown", "post_code": "Unknown", "city": "Unknown", "website": "N/A", "parish": "Canillo" }, "geometry": { "type": "Point", "coordinates": [ 1.6500037, 42.5786414 ] } },
{ "type": "Feature", "properties": { "id": 1665062096, "name": "La Solana", "type": "apartment", "latitude": 42.5337915, "longitude": 1.5879543, "street": "Unknown", "post_code": "Unknown", "city": "Unknown", "website": "N/A", "parish": "Encamp" }, "geometry": { "type": "Point", "coordinates": [ 1.5879543, 42.5337915 ] } },
{ "type": "Feature", "properties": { "id": 1934454860, "name": "Sol y Montanya", "type": "hotel", "latitude": 42.5330543, "longitude": 1.5781116, "street": "Unknown", "post_code": "Unknown", "city": "Unknown", "website": "N/A", "parish": "Encamp" }, "geometry": { "type": "Point", "coordinates": [ 1.5781116, 42.5330543 ] } },
{ "type": "Feature", "properties": { "id": 1934470860, "name": "Onix", "type": "hotel", "latitude": 42.532352, "longitude": 1.5747102, "street": "Unknown", "post_code": "Unknown", "city": "Unknown", "website": "N/A", "parish": "Escaldes-Engordany" }, "geometry": { "type": "Point", "coordinates": [ 1.5747102, 42.532352 ] } },
{ "type": "Feature", "properties": { "id": 1934470861, "name": "Comtes de Foix", "type": "hotel", "latitude": 42.5324092, "longitude": 1.5749273, "street": "Unknown", "post_code": "Unknown", "city": "Unknown", "website": "N/A", "parish": "Escaldes-Engordany" }, "geometry": { "type": "Point", "coordinates": [ 1.5749273, 42.5324092 ] } },
{ "type": "Feature", "properties": { "id": 1949792885, "name": "Hotel Tropical", "type": "hotel", "latitude": 42.5128361, "longitude": 1.5505895, "street": "Unknown", "post_code": "Unknown", "city": "Unknown", "website": "N/A", "parish": "Escaldes-Engordany" }, "geometry": { "type": "Point", "coordinates": [ 1.5505895, 42.5128361 ] } },
{ "type": "Feature", "properties": { "id": 2006678853, "name": "Hotel Ordino", "type": "hotel", "latitude": 42.5556307, "longitude": 1.5334519, "street": "Carrer de Mossèn Cinto Verdaguer", "post_code": "AD300", "city": "Ordino", "website": "https://hotelordino.ad/", "parish": "La Massana" }, "geometry": { "type": "Point", "coordinates": [ 1.5334519, 42.5556307 ] } },
{ "type": "Feature", "properties": { "id": 2050370613, "name": "Hotel Imperial", "type": "hotel", "latitude": 42.4694689, "longitude": 1.492671, "street": "Unknown", "post_code": "Unknown", "city": "Sant Julià de Lòria", "website": "N/A", "parish": "Sant Julia de Loria" }, "geometry": { "type": "Point", "coordinates": [ 1.492671, 42.4694689 ] } },
{ "type": "Feature", "properties": { "id": 2050370614, "name": "Unknown", "type": "hotel", "latitude": 42.4682066, "longitude": 1.4934703, "street": "Unknown", "post_code": "Unknown", "city": "Unknown", "website": "N/A", "parish": "Sant Julia de Loria" }, "geometry": { "type": "Point", "coordinates": [ 1.4934703, 42.4682066 ] } },
{ "type": "Feature", "properties": { "id": 2345240113, "name": "Festa Brava", "type": "hotel", "latitude": 42.5083071, "longitude": 1.52245, "street": "Carrer La Llacuna", "post_code": "AD500", "city": "Andorra la Vella", "website": "https://www-hotel-festabrava.com", "parish": "Andorra la Vella" }, "geometry": { "type": "Point", "coordinates": [ 1.52245, 42.5083071 ] } },
{ "type": "Feature", "properties": { "id": 2402829884, "name": "Hotel Exe Princep", "type": "hotel", "latitude": 42.5081265, "longitude": 1.5342843, "street": "Carrer de la Unió", "post_code": "Unknown", "city": "Unknown", "website": "https://www.eurostarshotels.com/exe-princep.html", "parish": "Escaldes-Engordany" }, "geometry": { "type": "Point", "coordinates": [ 1.5342843, 42.5081265 ] } },
{ "type": "Feature", "properties": { "id": 2425453193, "name": "Hotel Babot", "type": "hotel", "latitude": 42.5552313, "longitude": 1.5403763, "street": "Unknown", "post_code": "Unknown", "city": "Unknown", "website": "N/A", "parish": "La Massana" }, "geometry": { "type": "Point", "coordinates": [ 1.5403763, 42.5552313 ] } },
{ "type": "Feature", "properties": { "id": 2430777412, "name": "Pitiusa", "type": "hotel", "latitude": 42.5088198, "longitude": 1.5326843, "street": "Unknown", "post_code": "Unknown", "city": "Unknown", "website": "N/A", "parish": "Escaldes-Engordany" }, "geometry": { "type": "Point", "coordinates": [ 1.5326843, 42.5088198 ] } },
{ "type": "Feature", "properties": { "id": 2535229885, "name": "Mountain Hostel Tarter", "type": "hostel", "latitude": 42.5791027, "longitude": 1.6532708, "street": "Carretera de Sant Pere", "post_code": "AD100", "city": "El Tarter", "website": "N/A", "parish": "Canillo" }, "geometry": { "type": "Point", "coordinates": [ 1.6532708, 42.5791027 ] } },
{ "type": "Feature", "properties": { "id": 2694361901, "name": "Ona La Dorada El Tarter", "type": "hotel", "latitude": 42.581357, "longitude": 1.6387352, "street": "Carretera del Plans de Ransol", "post_code": "AD100", "city": "Ransol", "website": "https://www.onahotels.com/apart-hotel-el-tarter-andorra.html", "parish": "Canillo" }, "geometry": { "type": "Point", "coordinates": [ 1.6387352, 42.581357 ] } },
{ "type": "Feature", "properties": { "id": 2752720010, "name": "Eurostars Andorra", "type": "hotel", "latitude": 42.5080749, "longitude": 1.524806, "street": "Avinguda Meritxell", "post_code": "AD500", "city": "Andorra la Vella", "website": "https://www.eurostarshotels.com/eurostars-andorra.html", "parish": "Andorra la Vella" }, "geometry": { "type": "Point", "coordinates": [ 1.524806, 42.5080749 ] } },
{ "type": "Feature", "properties": { "id": 2880146181, "name": "Hotel Valmar", "type": "hotel", "latitude": 42.5085179, "longitude": 1.5326672, "street": "Unknown", "post_code": "Unknown", "city": "Unknown", "website": "N/A", "parish": "Escaldes-Engordany" }, "geometry": { "type": "Point", "coordinates": [ 1.5326672, 42.5085179 ] } },
{ "type": "Feature", "properties": { "id": 2935863297, "name": "Sàlvia d’or", "type": "hotel", "latitude": 42.5084353, "longitude": 1.5279015, "street": "Avinguda Meritxell", "post_code": "AD500", "city": "Andorra la Vella", "website": "http://www.salviahotel.com", "parish": "Escaldes-Engordany" }, "geometry": { "type": "Point", "coordinates": [ 1.5279015, 42.5084353 ] } },
{ "type": "Feature", "properties": { "id": 2966541163, "name": "Centric Atiram Hotel", "type": "hotel", "latitude": 42.5084124, "longitude": 1.5313733, "street": "Avinguda Meritxell", "post_code": "AD500", "city": "Andorra la Vella", "website": "http://www.hotelhusacentric.com", "parish": "Escaldes-Engordany" }, "geometry": { "type": "Point", "coordinates": [ 1.5313733, 42.5084124 ] } },
{ "type": "Feature", "properties": { "id": 3274267387, "name": "Hotel Rutllan", "type": "hotel", "latitude": 42.5474197, "longitude": 1.5132329, "street": "Avinguda del Ravell", "post_code": "AD400", "city": "La Massana", "website": "N/A", "parish": "La Massana" }, "geometry": { "type": "Point", "coordinates": [ 1.5132329, 42.5474197 ] } },
{ "type": "Feature", "properties": { "id": 3613186581, "name": "Hotel Coma Bella", "type": "hotel", "latitude": 42.4465191, "longitude": 1.4945765, "street": "Unknown", "post_code": "Unknown", "city": "Unknown", "website": "N/A", "parish": "Sant Julia de Loria" }, "geometry": { "type": "Point", "coordinates": [ 1.4945765, 42.4465191 ] } },
{ "type": "Feature", "properties": { "id": 3653139646, "name": "Hotel Sucara", "type": "hotel", "latitude": 42.5740441, "longitude": 1.5185324, "street": "Unknown", "post_code": "Unknown", "city": "Unknown", "website": "N/A", "parish": "Ordino" }, "geometry": { "type": "Point", "coordinates": [ 1.5185324, 42.5740441 ] } },
{ "type": "Feature", "properties": { "id": 3870497790, "name": "Cosmos", "type": "hotel", "latitude": 42.509777, "longitude": 1.5409086, "street": "Unknown", "post_code": "Unknown", "city": "Unknown", "website": "N/A", "parish": "Escaldes-Engordany" }, "geometry": { "type": "Point", "coordinates": [ 1.5409086, 42.509777 ] } },
{ "type": "Feature", "properties": { "id": 3870497793, "name": "Metropolis", "type": "hotel", "latitude": 42.5102806, "longitude": 1.5407736, "street": "Avinguda de les Escoles", "post_code": "Unknown", "city": "Unknown", "website": "https://www.hotel-metropolis.com/", "parish": "Escaldes-Engordany" }, "geometry": { "type": "Point", "coordinates": [ 1.5407736, 42.5102806 ] } },
{ "type": "Feature", "properties": { "id": 3902532111, "name": "Serras Andorra Luxury Boutique Resort & Spa", "type": "hotel", "latitude": 42.5795232, "longitude": 1.659224, "street": "Crta Gral", "post_code": "AD100", "city": "Soldeu", "website": "https://www.serrasandorra.com/", "parish": "Canillo" }, "geometry": { "type": "Point", "coordinates": [ 1.659224, 42.5795232 ] } },
{ "type": "Feature", "properties": { "id": 3902532113, "name": "Somriu Hotel Vall Ski", "type": "hotel", "latitude": 42.5799543, "longitude": 1.6599874, "street": "Unknown", "post_code": "Unknown", "city": "Unknown", "website": "N/A", "parish": "Canillo" }, "geometry": { "type": "Point", "coordinates": [ 1.6599874, 42.5799543 ] } },
{ "type": "Feature", "properties": { "id": 3914969217, "name": "Unknown", "type": "hotel", "latitude": 42.5507742, "longitude": 1.5260508, "street": "Unknown", "post_code": "Unknown", "city": "Unknown", "website": "N/A", "parish": "La Massana" }, "geometry": { "type": "Point", "coordinates": [ 1.5260508, 42.5507742 ] } },
{ "type": "Feature", "properties": { "id": 3928793750, "name": "Font d'Argent", "type": "hotel", "latitude": 42.5672131, "longitude": 1.600783, "street": "Unknown", "post_code": "Unknown", "city": "Unknown", "website": "https://hotelfontdargentcanillo.com/", "parish": "Canillo" }, "geometry": { "type": "Point", "coordinates": [ 1.600783, 42.5672131 ] } },
{ "type": "Feature", "properties": { "id": 3928793752, "name": "Roc del Castell", "type": "hotel", "latitude": 42.5676031, "longitude": 1.60151, "street": "Unknown", "post_code": "Unknown", "city": "Unknown", "website": "N/A", "parish": "Canillo" }, "geometry": { "type": "Point", "coordinates": [ 1.60151, 42.5676031 ] } },
{ "type": "Feature", "properties": { "id": 3940604187, "name": "Confort", "type": "hotel", "latitude": 42.5593863, "longitude": 1.6862618, "street": "Unknown", "post_code": "Unknown", "city": "Unknown", "website": "N/A", "parish": "Encamp" }, "geometry": { "type": "Point", "coordinates": [ 1.6862618, 42.5593863 ] } },
{ "type": "Feature", "properties": { "id": 4155758896, "name": "Barric Antic Hostel & Pub", "type": "hostel", "latitude": 42.5068772, "longitude": 1.5210629, "street": "Unknown", "post_code": "Unknown", "city": "Unknown", "website": "N/A", "parish": "Andorra la Vella" }, "geometry": { "type": "Point", "coordinates": [ 1.5210629, 42.5068772 ] } },
{ "type": "Feature", "properties": { "id": 4440275389, "name": "Hotel Roc de Caldes", "type": "hotel", "latitude": 42.5107094, "longitude": 1.5471363, "street": "Carretera d'Engolasters", "post_code": "Unknown", "city": "Unknown", "website": "http://www.rocdecaldes.com", "parish": "Escaldes-Engordany" }, "geometry": { "type": "Point", "coordinates": [ 1.5471363, 42.5107094 ] } },
{ "type": "Feature", "properties": { "id": 4736149721, "name": "Fijat", "type": "hotel", "latitude": 42.5952021, "longitude": 1.5263151, "street": "Carretera General 3", "post_code": "Unknown", "city": "Unknown", "website": "N/A", "parish": "Ordino" }, "geometry": { "type": "Point", "coordinates": [ 1.5263151, 42.5952021 ] } },
{ "type": "Feature", "properties": { "id": 4874445168, "name": "Hotel Les Fonts", "type": "hotel", "latitude": 42.5074425, "longitude": 1.5311582, "street": "Unknown", "post_code": "Unknown", "city": "Unknown", "website": "N/A", "parish": "Escaldes-Engordany" }, "geometry": { "type": "Point", "coordinates": [ 1.5311582, 42.5074425 ] } },
{ "type": "Feature", "properties": { "id": 5141025386, "name": "Hotel Sol-Park", "type": "hotel", "latitude": 42.4621655, "longitude": 1.4886206, "street": "Carretera de Fontaneda", "post_code": "Unknown", "city": "Sant Julià de Lòria", "website": "N/A", "parish": "Sant Julia de Loria" }, "geometry": { "type": "Point", "coordinates": [ 1.4886206, 42.4621655 ] } },
{ "type": "Feature", "properties": { "id": 5262012079, "name": "Hotel Comapedrosa", "type": "hotel", "latitude": 42.5719117, "longitude": 1.4839971, "street": "Plaça de l’Església", "post_code": "AD400", "city": "Arinsal", "website": "N/A", "parish": "La Massana" }, "geometry": { "type": "Point", "coordinates": [ 1.4839971, 42.5719117 ] } },
{ "type": "Feature", "properties": { "id": 5288596727, "name": "Hotel del Pui", "type": "hotel", "latitude": 42.547153, "longitude": 1.5147966, "street": "Avinguda el Travès", "post_code": "Unknown", "city": "Unknown", "website": "http://hoteldelpui.ad", "parish": "La Massana" }, "geometry": { "type": "Point", "coordinates": [ 1.5147966, 42.547153 ] } },
{ "type": "Feature", "properties": { "id": 5296699121, "name": "prat de solana", "type": "apartment", "latitude": 42.5579208, "longitude": 1.5050267, "street": "Unknown", "post_code": "Unknown", "city": "Unknown", "website": "N/A", "parish": "La Massana" }, "geometry": { "type": "Point", "coordinates": [ 1.5050267, 42.5579208 ] } },
{ "type": "Feature", "properties": { "id": 5325985825, "name": "Giberga Apartments", "type": "apartment", "latitude": 42.5466542, "longitude": 1.524833, "street": "Carretera de l'Aldosa", "post_code": "AD400", "city": "L’Aldosa", "website": "https://www.giberga.com/", "parish": "La Massana" }, "geometry": { "type": "Point", "coordinates": [ 1.524833, 42.5466542 ] } },
{ "type": "Feature", "properties": { "id": 5421376321, "name": "Unknown", "type": "apartment", "latitude": 42.5135614, "longitude": 1.5350819, "street": "Avinguda del Pessebre", "post_code": "Unknown", "city": "Unknown", "website": "N/A", "parish": "Escaldes-Engordany" }, "geometry": { "type": "Point", "coordinates": [ 1.5350819, 42.5135614 ] } },
{ "type": "Feature", "properties": { "id": 5435073421, "name": "Hostal Cisco De Sans", "type": "hotel", "latitude": 42.5071323, "longitude": 1.5204253, "street": "Carrer Anna Maria Janer", "post_code": "Unknown", "city": "Unknown", "website": "http://andorravive.com", "parish": "Andorra la Vella" }, "geometry": { "type": "Point", "coordinates": [ 1.5204253, 42.5071323 ] } },
{ "type": "Feature", "properties": { "id": 5455197121, "name": "Oros", "type": "hotel", "latitude": 42.5363034, "longitude": 1.5824801, "street": "Unknown", "post_code": "Unknown", "city": "Unknown", "website": "N/A", "parish": "Encamp" }, "geometry": { "type": "Point", "coordinates": [ 1.5824801, 42.5363034 ] } },
{ "type": "Feature", "properties": { "id": 5578089186, "name": "Hotel Sant Jordi", "type": "hotel", "latitude": 42.5064192, "longitude": 1.5184161, "street": "Unknown", "post_code": "Unknown", "city": "Unknown", "website": "N/A", "parish": "Andorra la Vella" }, "geometry": { "type": "Point", "coordinates": [ 1.5184161, 42.5064192 ] } },
{ "type": "Feature", "properties": { "id": 5754611982, "name": "Hotel Tudel", "type": "hotel", "latitude": 42.5088522, "longitude": 1.5393119, "street": "Plaça Coprínceps", "post_code": "AD700", "city": "Escaldes-Engordany", "website": "https://www.hoteltudel.com/", "parish": "Escaldes-Engordany" }, "geometry": { "type": "Point", "coordinates": [ 1.5393119, 42.5088522 ] } },
{ "type": "Feature", "properties": { "id": 6000043391, "name": "HERMUS", "type": "hotel", "latitude": 42.5343857, "longitude": 1.5852694, "street": "Unknown", "post_code": "Unknown", "city": "Unknown", "website": "N/A", "parish": "Encamp" }, "geometry": { "type": "Point", "coordinates": [ 1.5852694, 42.5343857 ] } },
{ "type": "Feature", "properties": { "id": 6000108815, "name": "ENCAMP", "type": "hotel", "latitude": 42.5321146, "longitude": 1.5741201, "street": "Unknown", "post_code": "AD200", "city": "Encamp", "website": "N/A", "parish": "Escaldes-Engordany" }, "geometry": { "type": "Point", "coordinates": [ 1.5741201, 42.5321146 ] } },
{ "type": "Feature", "properties": { "id": 6299288788, "name": "Art Hotel", "type": "hotel", "latitude": 42.5070946, "longitude": 1.5268645, "street": "Unknown", "post_code": "Unknown", "city": "Unknown", "website": "N/A", "parish": "Escaldes-Engordany" }, "geometry": { "type": "Point", "coordinates": [ 1.5268645, 42.5070946 ] } },
{ "type": "Feature", "properties": { "id": 6302075644, "name": "Evenia Coray", "type": "hotel", "latitude": 42.5350647, "longitude": 1.5850039, "street": "Unknown", "post_code": "Unknown", "city": "Unknown", "website": "https://es.eveniahotels.com/hotel-evenia-coray", "parish": "Encamp" }, "geometry": { "type": "Point", "coordinates": [ 1.5850039, 42.5350647 ] } },
{ "type": "Feature", "properties": { "id": 6313717322, "name": "Shusski", "type": "hotel", "latitude": 42.5349916, "longitude": 1.5875247, "street": "Unknown", "post_code": "Unknown", "city": "Unknown", "website": "N/A", "parish": "Encamp" }, "geometry": { "type": "Point", "coordinates": [ 1.5875247, 42.5349916 ] } },
{ "type": "Feature", "properties": { "id": 6398371961, "name": "Hotel Pyrenees", "type": "hotel", "latitude": 42.5074629, "longitude": 1.5196458, "street": "Av.Príncep Benlloch", "post_code": "AD500", "city": "Andorra la Vella", "website": "https://www.hotelpyrenees.com/", "parish": "Andorra la Vella" }, "geometry": { "type": "Point", "coordinates": [ 1.5196458, 42.5074629 ] } },
{ "type": "Feature", "properties": { "id": 6679876603, "name": "Alberg Rossell", "type": "hostel", "latitude": 42.509023, "longitude": 1.5437253, "street": "Unknown", "post_code": "Unknown", "city": "Unknown", "website": "N/A", "parish": "Escaldes-Engordany" }, "geometry": { "type": "Point", "coordinates": [ 1.5437253, 42.509023 ] } },
{ "type": "Feature", "properties": { "id": 6679876604, "name": "Hotel Continental", "type": "hotel", "latitude": 42.5108974, "longitude": 1.5417183, "street": "Avinguda del Pessebre", "post_code": "Unknown", "city": "Escaldes-Engordany", "website": "N/A", "parish": "Escaldes-Engordany" }, "geometry": { "type": "Point", "coordinates": [ 1.5417183, 42.5108974 ] } },
{ "type": "Feature", "properties": { "id": 6737173173, "name": "Hotel Font del Marge", "type": "hotel", "latitude": 42.5043187, "longitude": 1.5149609, "street": "Baixada del Molí", "post_code": "AD500", "city": "Andorra la Vella", "website": "N/A", "parish": "Andorra la Vella" }, "geometry": { "type": "Point", "coordinates": [ 1.5149609, 42.5043187 ] } },
{ "type": "Feature", "properties": { "id": 7296461671, "name": "Siracusa", "type": "hotel", "latitude": 42.5090541, "longitude": 1.5434026, "street": "Unknown", "post_code": "Unknown", "city": "Unknown", "website": "N/A", "parish": "Escaldes-Engordany" }, "geometry": { "type": "Point", "coordinates": [ 1.5434026, 42.5090541 ] } },
{ "type": "Feature", "properties": { "id": 7296461679, "name": "Carlemany", "type": "hotel", "latitude": 42.5092819, "longitude": 1.5445519, "street": "Unknown", "post_code": "Unknown", "city": "Unknown", "website": "N/A", "parish": "Escaldes-Engordany" }, "geometry": { "type": "Point", "coordinates": [ 1.5445519, 42.5092819 ] } },
{ "type": "Feature", "properties": { "id": 7556381685, "name": "Pierre Vancances Alba", "type": "apartment", "latitude": 42.5801943, "longitude": 1.6499562, "street": "Placeta del Tarter 22", "post_code": "Unknown", "city": "Unknown", "website": "N/A", "parish": "Canillo" }, "geometry": { "type": "Point", "coordinates": [ 1.6499562, 42.5801943 ] } },
{ "type": "Feature", "properties": { "id": 7801442885, "name": "Unknown", "type": "hotel", "latitude": 42.6187567, "longitude": 1.5392287, "street": "Unknown", "post_code": "Unknown", "city": "Unknown", "website": "N/A", "parish": "Ordino" }, "geometry": { "type": "Point", "coordinates": [ 1.5392287, 42.6187567 ] } },
{ "type": "Feature", "properties": { "id": 7817810454, "name": "Aparthotel Pobladó", "type": "hotel", "latitude": 42.5732635, "longitude": 1.4834012, "street": "Carretera d’Arinsal", "post_code": "Unknown", "city": "Arinsal", "website": "https://www.santmoritz.com/", "parish": "La Massana" }, "geometry": { "type": "Point", "coordinates": [ 1.4834012, 42.5732635 ] } },
{ "type": "Feature", "properties": { "id": 8968026808, "name": "Hotel Best Andorra Center", "type": "hotel", "latitude": 42.5077864, "longitude": 1.5203858, "street": "Carrer Doctor Nequí", "post_code": "Unknown", "city": "Unknown", "website": "https://www.besthotels.es/best-andorra-center.html", "parish": "Andorra la Vella" }, "geometry": { "type": "Point", "coordinates": [ 1.5203858, 42.5077864 ] } },
{ "type": "Feature", "properties": { "id": 9020981678, "name": "Secret Spot Hostel", "type": "hostel", "latitude": 42.5452016, "longitude": 1.5132204, "street": "Camí Cap del Carrer", "post_code": "AD400", "city": "La Massana", "website": "N/A", "parish": "La Massana" }, "geometry": { "type": "Point", "coordinates": [ 1.5132204, 42.5452016 ] } },
{ "type": "Feature", "properties": { "id": 9311112017, "name": "Hotel Roc Meler", "type": "hotel", "latitude": 42.5636741, "longitude": 1.6010619, "street": "Unknown", "post_code": "Unknown", "city": "Unknown", "website": "N/A", "parish": "Encamp" }, "geometry": { "type": "Point", "coordinates": [ 1.6010619, 42.5636741 ] } },
{ "type": "Feature", "properties": { "id": 9675059801, "name": "Hotel Jaume I", "type": "hotel", "latitude": 42.5045269, "longitude": 1.5141341, "street": "Carrer Roureda de Sansa", "post_code": "AD500", "city": "Andorra la Vella", "website": "N/A", "parish": "Andorra la Vella" }, "geometry": { "type": "Point", "coordinates": [ 1.5141341, 42.5045269 ] } },
{ "type": "Feature", "properties": { "id": 10050996118, "name": "Hotel Univers", "type": "hotel", "latitude": 42.5370372, "longitude": 1.5822466, "street": "Unknown", "post_code": "Unknown", "city": "Unknown", "website": "N/A", "parish": "Encamp" }, "geometry": { "type": "Point", "coordinates": [ 1.5822466, 42.5370372 ] } },
{ "type": "Feature", "properties": { "id": 10094939617, "name": "Hotel Paris", "type": "hotel", "latitude": 42.5359074, "longitude": 1.5818954, "street": "Unknown", "post_code": "Unknown", "city": "Unknown", "website": "https://www.hotelparisencamp.com/", "parish": "Encamp" }, "geometry": { "type": "Point", "coordinates": [ 1.5818954, 42.5359074 ] } },
{ "type": "Feature", "properties": { "id": 10702139205, "name": "Hotel City M28", "type": "hotel", "latitude": 42.5078128, "longitude": 1.5247393, "street": "Unknown", "post_code": "Unknown", "city": "Unknown", "website": "N/A", "parish": "Andorra la Vella" }, "geometry": { "type": "Point", "coordinates": [ 1.5247393, 42.5078128 ] } },
{ "type": "Feature", "properties": { "id": 10924845589, "name": "Hotel Andorra Palace", "type": "hotel", "latitude": 42.5084414, "longitude": 1.5269239, "street": "Unknown", "post_code": "Unknown", "city": "Unknown", "website": "N/A", "parish": "Andorra la Vella" }, "geometry": { "type": "Point", "coordinates": [ 1.5269239, 42.5084414 ] } },
{ "type": "Feature", "properties": { "id": 11125044850, "name": "Starc by Pierre & Vacances Premium", "type": "hotel", "latitude": 42.508175, "longitude": 1.5329363, "street": "Unknown", "post_code": "Unknown", "city": "Unknown", "website": "N/A", "parish": "Escaldes-Engordany" }, "geometry": { "type": "Point", "coordinates": [ 1.5329363, 42.508175 ] } },
{ "type": "Feature", "properties": { "id": 11172784134, "name": "Hotel Folch", "type": "hotel", "latitude": 42.4676165, "longitude": 1.4934581, "street": "Carrer de Loira", "post_code": "AD600", "city": "Sant Julià de Lòria", "website": "https://www.hotelfolch.com", "parish": "Sant Julia de Loria" }, "geometry": { "type": "Point", "coordinates": [ 1.4934581, 42.4676165 ] } },
{ "type": "Feature", "properties": { "id": 11178358059, "name": "Hodel Montecarlo", "type": "hotel", "latitude": 42.5322032, "longitude": 1.5738501, "street": "Joan Martí", "post_code": "Unknown", "city": "Unknown", "website": "N/A", "parish": "Escaldes-Engordany" }, "geometry": { "type": "Point", "coordinates": [ 1.5738501, 42.5322032 ] } },
{ "type": "Feature", "properties": { "id": 11338982069, "name": "Hotel Carlemany 4*", "type": "hotel", "latitude": 42.5093879, "longitude": 1.5446158, "street": "Unknown", "post_code": "Unknown", "city": "Unknown", "website": "N/A", "parish": "Escaldes-Engordany" }, "geometry": { "type": "Point", "coordinates": [ 1.5446158, 42.5093879 ] } },
{ "type": "Feature", "properties": { "id": 11897249433, "name": "Hotel Micolau", "type": "hotel", "latitude": 42.5719394, "longitude": 1.4843432, "street": "Carretera de Arinsal", "post_code": "AD400", "city": "Arinsal", "website": "N/A", "parish": "La Massana" }, "geometry": { "type": "Point", "coordinates": [ 1.4843432, 42.5719394 ] } },
{ "type": "Feature", "properties": { "id": 12290729423, "name": "President", "type": "hotel", "latitude": 42.5032838, "longitude": 1.513423, "street": "Unknown", "post_code": "Unknown", "city": "Unknown", "website": "N/A", "parish": "Andorra la Vella" }, "geometry": { "type": "Point", "coordinates": [ 1.513423, 42.5032838 ] } },
{ "type": "Feature", "properties": { "id": 12460387602, "name": "Apartahotel Sant Andreu", "type": "apartment", "latitude": 42.5759285, "longitude": 1.4817089, "street": "Carretera d'Arinsal", "post_code": "Unknown", "city": "Unknown", "website": "https://www.aparthotel-santandreu.com", "parish": "La Massana" }, "geometry": { "type": "Point", "coordinates": [ 1.4817089, 42.5759285 ] } },
{ "type": "Feature", "properties": { "id": 12478110092, "name": "Hotel Santa Bàrbara Ordino", "type": "hotel", "latitude": 42.5568471, "longitude": 1.5336408, "street": "Carrer Major", "post_code": "Unknown", "city": "Ordino", "website": "https://hotelstabarbara.com/", "parish": "La Massana" }, "geometry": { "type": "Point", "coordinates": [ 1.5336408, 42.5568471 ] } }
]
}
